City_ID,City,Lat,Lng,Max Temp,Humidity,Cloudiness,Wind Speed,Country,Date
0,huruta,8.15,39.35,15.82,69,73,1.09,ET,1686193130
1,broome,42.2506,-75.833,11.48,73,98,0.89,US,1686193130
2,arraial do cabo,-22.9661,-42.0278,12.98,100,0,0.0,BR,1686193130
3,georgetown,5.4112,100.3354,31.96,79,20,3.09,MY,1686193106
4,port-aux-francais,-49.35,70.2167,3.34,80,100,3.42,TF,1686193130
5,albany,42.6001,-73.9662,12.51,85,100,0.45,US,1686193059
6,kasane,-17.8167,25.15,14.2,60,0,1.86,BW,1686193131
7,yellowknife,62.456,-114.3525,13.29,88,75,1.54,CA,1686192632
8,olonkinbyen,70.9221,-8.7187,0.85,90,100,4.68,SJ,1686193235
9,grytviken,-54.2811,-36.5092,2.24,98,100,3.0,GS,1686193131
10,blackmans bay,-43.0167,147.3167,14.07,90,100,1.57,AU,1686193235
11,isafjordur,66.0755,-23.124,8.59,88,100,3.75,IS,1686193235
12,floro,61.5996,5.0328,9.98,71,17,3.09,NO,1686193235
13,badger,64.8,-147.5333,25.14,38,0,7.72,US,1686193235
14,adamstown,-25.066,-130.1015,21.73,67,3,4.99,PN,1686193236
15,ilulissat,69.2167,-51.1,-0.99,80,100,2.06,GL,1686193236
16,moose jaw,50.4001,-105.5344,18.14,88,9,8.23,CA,1686193236
17,vorgashor,67.5833,63.95,3.02,68,100,3.5,RU,1686193236
18,iqaluit,63.7506,-68.5145,2.85,86,100,1.03,CA,1686193133
19,muang xay,20.7,101.9833,25.84,88,96,1.34,LA,1686193236
20,vilyuchinsk,52.9306,158.4028,18.15,62,15,2.08,RU,1686193133
21,codrington,-38.2667,141.9667,12.79,78,73,7.54,AU,1686193133
22,igarka,67.4667,86.5833,16.68,57,97,4.31,RU,1686193133
23,chonchi,-42.6128,-73.8092,12.29,88,100,7.27,CL,1686193133
24,bilibino,68.0546,166.4372,18.57,27,2,3.53,RU,1686193134
25,ihosy,-22.4,46.1167,15.54,93,59,2.03,MG,1686193134
26,waitangi,-43.9535,-176.5597,11.01,80,50,2.45,NZ,1686193134
27,broken hill,-31.95,141.4333,14.44,47,0,8.54,AU,1686193134
28,manismata,-2.4667,111.0333,28.35,76,86,1.81,ID,1686193134
29,mili,6.0815,171.735,28.52,79,39,7.45,MH,1686193134
30,melchor de mencos,17.0686,-89.1522,29.0,74,20,0.0,GT,1686193135
31,bad salzungen,50.8167,10.2333,13.83,92,1,1.68,DE,1686193135
32,thompson,55.7435,-97.8558,27.09,57,20,1.03,CA,1686193135
33,constantia,44.1833,28.65,11.5,70,90,2.46,RO,1686193135
34,piatykhatky,48.4133,33.7106,16.37,60,100,0.9,UA,1686193135
35,aykhal,66.0,111.5,10.88,55,99,0.93,RU,1686193135
36,invercargill,-46.4,168.35,8.9,76,0,0.88,NZ,1686193135
37,bredasdorp,-34.5322,20.0403,11.29,88,4,2.88,ZA,1686193135
38,fort st. john,56.2499,-120.8529,24.94,20,20,3.09,CA,1686192964
39,margaret river,-33.95,115.0667,16.88,57,51,4.4,AU,1686193136
40,bukittinggi,-0.3091,100.3706,24.34,64,99,1.16,ID,1686193136
41,edinburgh of the seven seas,-37.0676,-12.3116,15.01,83,74,11.29,SH,1686193136
42,coquimbo,-29.9533,-71.3436,14.85,94,75,2.06,CL,1686192862
43,port mathurin,-19.6833,63.4167,24.79,70,1,8.21,MU,1686193136
44,ribeira grande,38.5167,-28.7,18.21,77,51,4.02,PT,1686193136
45,polyarnyy,69.1989,33.4478,4.7,75,33,2.24,RU,1686193136
46,bethel,41.3712,-73.414,15.47,71,91,1.54,US,1686193135
47,hamilton,39.1834,-84.5333,17.77,53,0,0.0,US,1686192931
48,afaahiti,-17.75,-149.2833,26.93,68,91,8.69,PF,1686193137
49,pulandian,39.3953,121.9669,28.08,22,2,5.97,CN,1686193137
50,kodiak,57.79,-152.4072,8.73,93,100,3.09,US,1686193114
51,hawaiian paradise park,19.5933,-154.9731,26.73,76,0,3.6,US,1686193137
52,wailua homesteads,22.0669,-159.378,26.44,71,0,3.6,US,1686193137
53,tazovsky,67.4667,78.7,7.19,62,100,5.87,RU,1686193137
54,college,64.8569,-147.8028,25.97,35,75,7.72,US,1686193138
55,balikpapan,-1.2675,116.8289,29.55,84,40,3.6,ID,1686192899
56,port douglas,-16.4833,145.4667,24.4,70,37,4.61,AU,1686193138
57,walvis bay,-22.9575,14.5053,8.53,87,0,2.57,NA,1686193138
58,galle,6.0367,80.217,28.07,84,91,6.36,LK,1686193138
59,opuwo,-18.0607,13.84,14.43,40,0,1.49,NA,1686193139
60,keflavik,64.0049,-22.5624,9.37,93,100,9.77,IS,1686193139
61,geraldton,-28.7667,114.6,17.23,67,40,5.66,AU,1686193139
62,pisco,-13.7,-76.2167,21.03,73,100,4.63,PE,1686192863
63,carqueiranne,43.0953,6.073,19.17,84,0,0.0,FR,1686193139
64,bubaque,11.2833,-15.8333,27.6,78,70,6.78,GW,1686193140
65,papatowai,-46.5619,169.4708,8.85,75,16,0.81,NZ,1686193140
66,sao joao da barra,-21.6403,-41.0511,20.8,82,0,2.6,BR,1686192904
67,talnakh,69.4865,88.3972,10.67,90,100,2.26,RU,1686193140
68,zaozersk,69.4005,32.4476,4.37,72,69,1.94,RU,1686193140
69,naze,28.3667,129.4833,24.51,82,100,7.08,JP,1686193140
70,kununurra,-15.7667,128.7333,30.99,42,42,5.14,AU,1686192876
71,makar'yev,57.8797,43.8069,8.79,93,100,2.58,RU,1686193141
72,porto novo,6.4965,2.6036,21.9,90,100,3.43,BJ,1686193141
73,al jawf,29.5,38.75,24.15,28,0,2.71,SA,1686193141
74,lompoc,34.6391,-120.4579,17.66,86,100,2.68,US,1686193141
75,stanley,54.868,-1.6985,9.6,82,75,1.54,GB,1686193141
76,nema,57.5067,50.5011,10.59,93,83,4.09,RU,1686193141
77,kapit,2.0167,112.9333,28.93,72,94,1.0,MY,1686193142
78,ushuaia,-54.8,-68.3,0.81,80,0,1.03,AR,1686193069
79,remire-montjoly,4.9167,-52.2667,25.02,94,75,0.0,GF,1686193142
80,tiksi,71.6872,128.8694,6.02,71,96,1.29,RU,1686193142
81,luderitz,-26.6481,15.1594,14.34,83,71,3.45,NA,1686193142
82,tromso,69.6496,18.957,5.21,65,40,3.09,NO,1686193142
83,taoudenni,22.6783,-3.9836,32.6,18,3,4.84,ML,1686193142
84,labrador city,52.9463,-66.9114,3.95,93,100,5.14,CA,1686193143
85,mawu,29.5923,107.3139,24.86,71,100,1.2,CN,1686193143
86,sinop,41.7711,34.8709,14.41,85,19,2.4,TR,1686193143
87,santiago del torno,-17.9833,-63.3833,22.1,91,3,1.93,BO,1686193143
88,tsiombe,-25.3,45.4833,17.62,88,0,1.67,MG,1686193143
89,beloyarskiy,63.7119,66.6722,11.31,53,100,3.52,RU,1686193143
90,alo,7.4178,6.7371,23.35,98,100,1.37,NG,1686193143
91,chegdomyn,51.1167,133.0167,21.67,42,100,3.03,RU,1686193143
92,pallisa,1.145,33.7094,18.5,92,53,1.51,UG,1686193144
93,sidney,-33.8679,151.2073,17.97,73,0,7.2,AU,1686193017
94,puerto natales,-51.7236,-72.4875,0.86,89,100,0.84,CL,1686193144
95,longyearbyen,78.2186,15.6401,3.91,70,0,6.69,SJ,1686193144
96,quellon,-43.1167,-73.6167,11.14,93,100,7.72,CL,1686193144
97,ust-nera,64.5667,143.2,10.69,77,98,1.84,RU,1686193145
98,dalhart,36.0595,-102.5133,18.04,82,100,6.17,US,1686193145
99,waingapu,-9.6567,120.2641,28.98,57,12,6.14,ID,1686193145
100,la ronge,55.1001,-105.2842,23.12,35,20,2.57,CA,1686193145
101,torit,4.4133,32.5678,21.36,87,31,1.2,SS,1686193145
102,enewetak,11.3474,162.3373,28.05,78,88,6.49,MH,1686193145
103,anadyr,64.75,177.4833,11.28,66,75,4.0,RU,1686193145
104,kamaishi,39.2667,141.8833,20.75,69,100,2.93,JP,1686193146
105,belaya glina,46.07,40.86,14.06,78,72,3.27,RU,1686193146
106,carnarvon,-24.8667,113.6333,19.98,40,0,5.61,AU,1686193146
107,papao,-17.75,-149.55,27.82,66,74,10.35,PF,1686193146
108,kingston,17.997,-76.7936,28.53,83,40,6.17,JM,1686193146
109,bargaal,11.2864,51.0773,28.89,72,64,4.22,SO,1686193146
110,udachny,66.4167,112.4,11.92,53,64,3.11,RU,1686193147
111,port saint john's,-31.6229,29.5448,17.89,55,0,2.74,ZA,1686193147
112,riverton,40.5219,-111.9391,21.58,46,0,1.79,US,1686193147
113,burutu,5.3509,5.5076,24.19,96,100,2.77,NG,1686193147
114,lyakhavichy,53.0388,26.2656,9.7,91,6,1.49,BY,1686193147
115,port elizabeth,-33.918,25.5701,11.29,97,0,1.03,ZA,1686193147
116,shiloh,38.5614,-89.8973,22.27,65,0,1.54,US,1686192989
117,masuguru,-11.3667,38.4167,20.0,90,4,1.19,TZ,1686193148
118,pangobilian,8.8011,117.8594,30.14,67,73,3.15,PH,1686193148
119,al manshah,26.4769,31.8035,35.14,21,92,9.77,EG,1686193148
120,mlimba,-8.8,35.8167,22.09,67,100,0.53,TZ,1686193148
121,handia,25.3833,82.1833,38.93,17,0,3.42,IN,1686193148
122,amga,60.8953,131.9608,21.46,40,24,2.81,RU,1686193149
123,sitka,57.0531,-135.33,15.94,63,0,2.57,US,1686193149
124,kavieng,-2.5744,150.7967,29.12,74,100,3.52,PG,1686193149
125,maracas,-13.4411,-40.4308,17.04,89,97,2.73,BR,1686193149
126,nuuk,64.1835,-51.7216,-0.07,77,81,4.47,GL,1686193149
127,falun,60.6036,15.626,12.23,79,87,4.13,SE,1686193149
128,natal,-5.795,-35.2094,25.12,94,40,3.6,BR,1686192914
129,brookings,44.3114,-96.7984,24.0,60,0,2.06,US,1686193036
130,balsas,-7.5325,-46.0356,23.93,59,10,0.6,BR,1686193030
131,yaroslavl,57.6299,39.8737,8.89,87,0,0.0,RU,1686193150
132,atafu village,-8.5421,-172.5159,28.74,72,19,3.03,TK,1686193150
133,port lincoln,-34.7333,135.8667,16.24,58,65,10.8,AU,1686193150
134,tafuna,-14.3358,-170.72,27.37,80,97,6.83,AS,1686193150
135,saint-pierre,-21.3393,55.4781,21.82,60,0,3.09,RE,1686193129
136,hithadhoo,-0.6,73.0833,28.49,69,59,1.28,MV,1686193150
137,miquelon,47.0975,-56.3814,6.0,97,100,2.76,PM,1686193150
138,avarua,-21.2078,-159.775,25.03,73,20,5.66,CK,1686193151
139,susuman,62.7833,148.1667,14.25,49,100,4.67,RU,1686193151
140,xuanzhou,30.9525,118.7553,29.7,57,75,4.17,CN,1686193151
141,qaqortoq,60.7167,-46.0333,1.87,85,79,0.68,GL,1686193151
142,bull savanna,17.8868,-77.5902,25.51,89,99,4.15,JM,1686193151
143,belmonte,-15.8631,-38.8828,22.58,81,4,4.1,BR,1686193151
144,sechura,-5.5569,-80.8222,24.57,75,30,7.12,PE,1686193151
145,cabrero,-37.0333,-72.4,12.41,73,100,3.02,CL,1686192918
146,tura,25.5198,90.2201,28.5,68,100,1.62,IN,1686193000
147,saipan,15.1355,145.701,29.25,100,31,6.71,MP,1686193152
148,vadso,70.0744,29.7487,4.49,70,20,4.63,NO,1686193152
149,kourou,5.1552,-52.6478,25.03,92,96,2.43,GF,1686193152
150,la'ie,21.6477,-157.9253,29.98,67,79,1.79,US,1686193152
151,pacific grove,36.6177,-121.9166,17.05,80,100,5.66,US,1686193152
152,puerto baquerizo moreno,-0.9,-89.6,25.56,80,82,4.72,EC,1686193152
153,zuidhorn,53.2467,6.4028,11.97,44,100,3.09,NL,1686193152
154,uturoa,-16.7333,-151.4333,26.89,66,35,9.17,PF,1686193153
155,mersing,2.4312,103.8405,28.95,89,40,2.57,MY,1686193153
156,ibiza,38.9088,1.433,21.0,92,20,1.54,ES,1686193153
157,gadzhiyevo,69.2551,33.3362,4.46,74,31,2.28,RU,1686193153
158,lazaro cardenas,17.9583,-102.2,27.31,76,37,2.05,MX,1686193048
159,kapuskasing,49.4169,-82.4331,14.05,41,20,2.57,CA,1686192975
160,ebaye,8.7748,167.7392,31.01,74,0,5.14,MH,1686193154
161,freetown,8.484,-13.2299,26.84,83,75,2.06,SL,1686193154
162,burnie,-41.0667,145.9167,13.58,95,54,5.15,AU,1686193154
163,khovd,48.0056,91.6419,25.78,22,6,0.45,MN,1686193154
164,skeldon,5.8833,-57.1333,25.1,91,100,2.73,GY,1686193154
165,prince george,53.9166,-122.753,25.69,23,0,4.63,CA,1686193154
166,labuan,5.2767,115.2417,31.2,66,20,2.57,MY,1686193154
167,shingu,33.7333,135.9833,21.82,77,100,0.38,JP,1686192858
168,oujda-angad,34.6805,-1.9076,18.35,88,75,4.12,MA,1686193155
169,manggar,-2.8833,108.2667,28.34,77,100,6.3,ID,1686193155
170,granja,-3.1203,-40.8261,23.16,93,0,1.72,BR,1686193155
171,newman,37.3138,-121.0208,24.13,61,100,1.34,US,1686193155
172,illizi,26.4833,8.4667,23.89,23,30,0.41,DZ,1686193155
173,robore,-18.3333,-59.75,20.95,70,11,1.37,BO,1686193155
174,tibro,58.4245,14.1616,10.43,94,7,1.53,SE,1686193155
175,suntar,62.1444,117.6319,18.83,33,100,1.14,RU,1686193156
176,coos bay,43.3665,-124.2179,14.99,94,100,3.09,US,1686193156
177,nurota,40.5614,65.6886,33.19,11,2,3.04,UZ,1686193156
178,lodja,-3.4833,23.4333,20.79,89,74,0.5,CD,1686193156
179,new norfolk,-42.7826,147.0587,14.72,88,100,0.45,AU,1686193156
180,concepcion,-36.827,-73.0498,13.89,94,100,6.69,CL,1686192951
181,jamestown,42.097,-79.2353,13.8,47,20,2.57,US,1686193156
182,alakurtti,66.9672,30.3491,5.84,90,99,1.04,RU,1686193157
183,nelson bay,-32.7167,152.15,19.49,75,69,3.58,AU,1686193039
184,chibougamau,49.9168,-74.3659,11.79,71,100,2.57,CA,1686193157
185,santa rosa del sur,7.9644,-74.0544,21.66,96,100,1.42,CO,1686193157
186,salekhard,66.53,66.6019,8.98,49,78,2.86,RU,1686193157
187,san rafael,-34.6177,-68.3301,13.68,63,88,2.63,AR,1686193157
188,lihue,21.9789,-159.3672,26.77,70,0,3.6,US,1686193158
189,kapa'a,22.0752,-159.319,27.18,70,0,3.6,US,1686193158
190,richards bay,-28.783,32.0377,22.31,41,0,3.81,ZA,1686193081
191,krasnik,50.9236,22.2271,12.93,93,69,2.55,PL,1686193159
192,kerikeri,-35.2268,173.9474,17.17,74,30,0.89,NZ,1686193159
193,cockburn town,21.4612,-71.1419,28.39,84,80,7.55,TC,1686193159
194,bonthe,7.5264,-12.505,26.31,84,100,2.71,SL,1686193159
195,devin,41.7433,24.4,11.07,94,46,0.6,BG,1686192899
196,hasaki,35.7333,140.8333,30.12,69,100,4.22,JP,1686193160
197,mossel bay,-34.1831,22.146,13.96,69,84,2.64,ZA,1686193160
198,port alfred,-33.5906,26.891,14.78,76,4,3.15,ZA,1686193160
199,dar chioukh,34.8964,3.4854,20.65,48,94,7.18,DZ,1686193160
200,miles city,46.4083,-105.8406,20.54,77,20,3.09,US,1686193160
201,lambayong,6.5194,125.0444,27.24,62,18,1.42,PH,1686193160
202,flying fish cove,-10.4217,105.6791,26.82,78,100,6.69,CX,1686193161
203,bayji,34.9311,43.487,29.3,20,2,3.18,IQ,1686193161
204,nacaome,13.5361,-87.4875,25.41,83,75,0.63,HN,1686193161
205,taman',45.2117,36.7161,17.7,69,67,7.1,RU,1686193161
206,alaghsas,17.0187,8.0168,26.87,52,4,2.98,NE,1686193162
207,gorontalo,0.5412,123.0595,31.53,55,52,3.63,ID,1686193162
208,anzio,41.4853,12.6179,20.48,79,100,2.61,IT,1686193162
209,petropavlovsk-kamchatsky,53.0452,158.6483,17.33,45,75,7.0,RU,1686193162
210,badr hunayn,23.7829,38.7905,31.73,22,2,0.76,SA,1686193162
211,coruripe,-10.1256,-36.1756,24.5,85,65,3.3,BR,1686193163
212,belyy yar,53.6039,91.3903,26.94,41,0,2.0,RU,1686193163
213,xining,36.6167,101.7667,18.71,33,94,0.33,CN,1686193155
214,sheksna,59.21,38.5107,6.98,88,99,1.22,RU,1686193163
215,olinda,-8.0089,-34.8553,25.85,89,75,2.06,BR,1686192909
216,punta arenas,-53.15,-70.9167,-0.94,86,0,3.6,CL,1686193163
217,maturin,9.75,-63.1767,25.91,100,71,2.06,VE,1686193163
218,nova sintra,14.8667,-24.7167,21.62,85,8,2.09,CV,1686193164
219,tonghae,37.5439,129.1069,25.82,49,100,3.11,KR,1686193164
220,tosontsengel,48.7567,98.2839,22.02,36,39,2.54,MN,1686193164
221,zuni pueblo,35.0725,-108.8506,21.35,14,23,7.68,US,1686193164
222,midvagur,62.0511,-7.1939,7.46,100,100,1.54,FO,1686193164
223,port augusta,-32.5,137.7667,18.12,46,0,8.1,AU,1686193164
224,talara,-4.5772,-81.2719,25.42,73,0,4.63,PE,1686193164
225,rongelap,11.1635,166.8941,27.71,82,98,7.12,MH,1686193164
226,alice springs,-23.7,133.8833,17.75,34,0,5.66,AU,1686192909
227,awjilah,29.1081,21.2869,23.05,50,11,6.67,LY,1686193165
228,siparia,10.1333,-61.5,26.57,87,96,5.12,TT,1686193165
229,tyre,33.2733,35.1939,21.22,71,70,0.61,LB,1686193165
230,igrim,63.1906,64.4162,11.0,49,58,3.06,RU,1686193165
231,byron bay,-28.65,153.6167,23.73,60,14,3.94,AU,1686192950
232,plastun,44.7561,136.2939,13.43,94,100,1.87,RU,1686193165
233,cadale,2.7603,46.3222,26.51,80,85,7.85,SO,1686193165
234,vallenar,-28.5708,-70.7581,14.31,81,0,0.49,CL,1686193166
235,west island,-12.1568,96.8225,25.99,83,75,9.26,CC,1686193166
236,madras,13.0878,80.2785,33.99,66,40,5.66,IN,1686193094
237,nuku'alofa,-21.1333,-175.2,22.19,88,100,2.57,TO,1686193160
238,urucara,-2.5364,-57.76,23.43,96,78,1.05,BR,1686193166
239,yeed,4.55,43.0333,23.94,76,61,6.38,SO,1686193166
240,mahina,-17.5065,-149.489,27.87,57,40,4.12,PF,1686193166
241,prnjavor,44.8703,17.6628,14.59,95,90,0.94,BA,1686193166
242,sutherlin,43.3901,-123.3126,25.0,36,0,3.09,US,1686193167
243,yamba,-5.9,22.3,23.27,60,61,0.74,CD,1686193167
244,usogorsk,63.4106,48.6872,6.57,59,38,1.91,RU,1686193167
245,kpandae,8.4689,-0.0113,23.84,93,100,4.52,GH,1686193167
246,aitape,-3.1374,142.3475,29.75,71,20,2.35,PG,1686193167
247,griffith,41.5284,-87.4237,15.62,58,0,2.06,US,1686193168
248,coahuayana de hidalgo,18.7,-103.6583,26.44,82,94,1.84,MX,1686193168
249,weno,7.4515,151.8468,26.45,88,99,7.9,FM,1686193168
250,ishigaki,24.3448,124.1572,29.07,74,40,5.66,JP,1686193168
251,miches,18.9836,-69.0476,26.69,87,87,3.15,DO,1686193168
252,kochubey,44.3861,46.5825,18.37,60,8,0.89,RU,1686193168
253,dhamar,14.5427,44.4051,17.62,32,79,2.55,YE,1686193168
254,rumoi,43.9344,141.6428,19.32,71,47,2.29,JP,1686193169
255,east aurora,42.7678,-78.6134,16.55,92,52,2.87,US,1686193043
256,labytnangi,66.6572,66.4183,8.92,47,64,2.68,RU,1686193169
257,fale old settlement,-9.3852,-171.2468,28.69,73,9,3.45,TK,1686193169
258,gannan,47.9147,123.5031,18.1,49,68,2.91,CN,1686193169
259,tshabong,-26.05,22.45,13.9,19,3,5.16,BW,1686193169
260,katsuren-haebaru,26.3369,127.8719,30.43,70,20,6.69,JP,1686193169
261,mizan teferi,6.9833,35.5833,16.3,92,95,0.7,ET,1686193169
262,south upi,6.8333,124.15,26.87,70,41,2.3,PH,1686193170
263,camacupa,-12.0167,17.4833,12.21,51,4,1.48,AO,1686193170
264,gazojak,41.1875,61.4036,29.22,32,40,8.39,TM,1686193170
265,xai-xai,-25.0519,33.6442,19.21,83,0,4.66,MZ,1686192918
266,utrik,11.2278,169.8474,27.58,83,93,7.75,MH,1686193170
267,sisimiut,66.9395,-53.6735,-0.3,72,98,1.91,GL,1686193170
268,yuzhno-kurilsk,44.0306,145.8556,15.14,83,68,0.96,RU,1686193170
269,chifeng,42.2683,118.9636,21.83,21,98,7.52,CN,1686193170
270,jingdezhen,29.2947,117.2079,23.2,90,99,1.24,CN,1686193171
271,colonia,50.9333,6.95,15.53,86,2,0.51,DE,1686192863
272,nadym,65.5333,72.5167,10.64,61,100,7.17,RU,1686193171
273,kidal,18.4411,1.4078,31.44,16,18,3.03,ML,1686193171
274,tambacounda,13.7539,-13.7586,31.03,55,0,6.17,SN,1686193171
275,ugoofaaru,5.6667,73.0,28.64,80,100,6.94,MV,1686193171
276,lebu,-37.6167,-73.65,13.33,87,100,8.3,CL,1686193266
277,yatou,37.15,122.3833,25.08,60,87,3.95,CN,1686193171
278,puerto ayora,-0.7393,-90.3518,25.86,90,100,1.79,EC,1686193172
279,markovo,57.3206,107.0881,22.41,38,8,1.89,RU,1686193172
280,santa elena de uairen,4.6167,-61.1333,19.7,91,88,1.18,VE,1686193172
281,acarau,-2.8856,-40.12,25.13,88,0,5.39,BR,1686193172
282,baukau,51.5526,7.2042,15.12,74,56,1.79,DE,1686193172
283,houmt el souk,33.8758,10.8575,20.97,83,40,4.63,TN,1686193113
284,andirin,37.5776,36.3549,15.97,61,6,1.62,TR,1686193172
285,karratha,-20.7377,116.8463,23.59,31,0,8.32,AU,1686193173
286,tolanaro,-25.0319,46.9987,20.04,88,20,2.06,MG,1686193173
287,saskatoon,52.1168,-106.6345,25.99,47,100,3.6,CA,1686193054
288,noumea,-22.2763,166.4572,25.0,99,1,3.78,NC,1686193173
289,pundong,-7.9522,110.3486,29.16,69,28,4.78,ID,1686193173
290,lubang,13.8584,120.124,29.04,75,58,4.07,PH,1686193173
291,nar'yan-mar,67.6713,53.087,4.24,53,94,4.24,RU,1686193173
292,arkhangel'sk,64.5401,40.5433,6.09,60,100,2.14,RU,1686193131
293,roma,43.2128,-75.4557,11.4,94,100,1.54,US,1686193174
294,puerto lempira,15.2667,-83.7667,26.41,87,100,0.14,HN,1686193174
295,kargopol',61.5071,38.9456,7.39,80,37,1.18,RU,1686193174
296,tobelo,1.7284,128.0095,29.23,72,49,2.83,ID,1686193174
297,kitimat,54.0524,-128.6534,28.21,34,43,1.79,CA,1686193174
298,klyuchi,52.2667,79.1667,30.97,25,41,2.95,RU,1686193174
299,pathein,16.7833,94.7333,27.49,79,100,3.97,MM,1686193174
300,tremonton,41.7119,-112.1655,23.81,23,0,2.06,US,1686193174
301,kargasok,59.0556,80.8572,26.79,47,100,4.09,RU,1686193175
302,nemuro,43.3236,145.575,13.16,92,52,4.26,JP,1686193175
303,grand gaube,-20.0064,57.6608,23.22,77,2,1.34,MU,1686192918
304,kencong,-8.2833,113.3667,28.1,71,6,1.93,ID,1686193175
305,severo-yeniseyskiy,60.3725,93.0408,27.07,39,56,3.03,RU,1686193175
306,canutama,-6.5339,-64.3831,23.34,93,98,1.08,BR,1686193175
307,kem',64.9555,34.5793,8.1,83,100,3.34,RU,1686193176
308,uniao da vitoria,-26.23,-51.0864,10.64,96,1,0.45,BR,1686193078
309,valle de la pascua,9.2155,-66.0073,23.53,92,39,2.09,VE,1686193176
310,gaspe,48.8334,-64.4819,7.12,100,100,3.09,CA,1686193176
311,hermanus,-34.4187,19.2345,16.0,79,74,7.62,ZA,1686193176
312,westport,41.1415,-73.3579,17.08,70,86,2.24,US,1686193176
313,aasiaat,68.7098,-52.8699,-3.99,85,84,2.26,GL,1686193176
314,bankim,6.083,11.4905,19.83,97,99,0.22,CM,1686193177
315,happy valley-goose bay,53.3168,-60.3315,5.17,93,100,7.2,CA,1686193177
316,arkhara,49.4212,130.0842,14.68,92,100,5.81,RU,1686193177
317,jiwani,25.05,61.7417,30.34,79,1,2.86,PK,1686193177
318,whitehorse,60.7161,-135.0538,21.68,30,20,6.71,CA,1686193177
319,saint-joseph,-21.3667,55.6167,21.21,79,37,4.86,RE,1686193177
320,salalah,17.0151,54.0924,27.65,80,58,1.81,OM,1686193177
321,namibe,-15.1961,12.1522,17.19,78,0,3.62,AO,1686193177
322,cromwell,41.5951,-72.6454,16.2,70,99,1.35,US,1686193178
323,minas de marcona,-15.2119,-75.1103,13.62,87,29,3.9,PE,1686193178
324,hammerfest,70.6634,23.6821,3.25,81,100,2.06,NO,1686193178
325,zambezi,-13.5432,23.1047,17.96,45,93,1.86,ZM,1686193178
326,hadibu,12.65,54.0333,28.63,80,96,6.45,YE,1686193178
327,touba,8.2833,-7.6833,21.57,97,100,3.09,CI,1686193178
328,suva,-18.1416,178.4415,23.71,83,75,2.57,FJ,1686193179
329,khrenovoye,51.12,40.2889,14.83,80,2,1.04,RU,1686193179
330,nehe,48.4833,124.8333,17.45,47,99,2.96,CN,1686193179
331,gole,52.1665,20.4937,16.14,87,4,2.22,PL,1686193179
332,saint-francois,46.4154,3.9054,13.71,82,0,0.51,FR,1686193179
333,sitangkai,4.6628,119.3928,28.78,74,41,4.06,PH,1686193179
334,muisne,0.6,-80.0333,26.36,86,93,4.91,EC,1686193179
335,mhamid,29.82,-5.72,27.37,42,89,6.64,MA,1686193180
336,aksu,41.1231,80.2644,30.06,17,99,2.39,CN,1686193180
337,barra de santo antonio,-9.4047,-35.5072,23.6,86,31,3.56,BR,1686193180
338,christchurch,-43.5333,172.6333,12.45,77,75,4.63,NZ,1686192830
339,neryungri,56.6709,124.6491,16.72,67,96,2.17,RU,1686193180
340,puerto san jose,13.9256,-90.8244,27.09,76,32,1.72,GT,1686193180
341,san patricio,28.017,-97.5169,27.92,71,8,3.23,US,1686193180
342,lobujya,27.95,86.8167,-1.55,52,5,1.25,NP,1686193181
343,ende,-8.8432,121.6623,28.88,64,57,3.18,ID,1686193181
344,valognes,49.5088,-1.4705,13.66,94,100,6.69,FR,1686193125
345,inarajan village,13.2736,144.7484,30.78,80,100,4.99,GU,1686193181
346,ayr,55.4627,-4.6339,10.28,81,100,3.6,GB,1686193181
347,dauphin,51.1494,-100.0502,24.08,83,0,3.6,CA,1686193181
348,hilo,19.7297,-155.09,26.85,74,0,3.6,US,1686192685
349,lorengau,-2.0226,147.2712,29.65,69,61,2.56,PG,1686193181
350,kimbe,-5.5502,150.1429,29.28,79,67,0.53,PG,1686193181
351,tadmur,34.5608,38.2805,23.9,44,8,2.97,SY,1686193182
352,coronel suarez,-37.4547,-61.9334,10.4,53,100,3.17,AR,1686193182
353,tofol,5.3248,163.0078,28.93,76,100,4.29,FM,1686193182
354,chimore,-16.9833,-65.1333,21.76,93,84,0.96,BO,1686193182
355,kurmuk,10.55,34.2833,23.08,82,97,1.5,SD,1686193182
356,waynesville,35.4887,-82.9887,17.36,75,100,0.45,US,1686192998
357,les avirons,-21.2418,55.3394,22.03,60,0,3.09,RE,1686193182
358,peniche,39.3558,-9.3811,20.72,85,1,6.75,PT,1686193182
359,kirakira,-10.4544,161.9205,27.77,81,30,2.33,SB,1686193183
360,santiago de cao,-7.9589,-79.2392,23.07,88,10,5.14,PE,1686193183
361,ulsteinvik,62.3432,5.8487,9.95,85,94,6.26,NO,1686193183
362,shache,38.4167,77.2406,27.78,21,25,1.74,CN,1686193183
363,berber,18.0216,33.983,31.22,38,100,2.31,SD,1686193183
364,kolonia,50.9333,6.95,15.53,86,2,0.51,DE,1686193183
365,medicine hat,50.0501,-110.6683,22.55,86,75,2.06,CA,1686193183
366,nuevo laredo,27.4763,-99.5164,33.15,40,0,3.09,MX,1686193051
367,island harbour,50.724,-1.2758,12.4,86,1,3.13,GB,1686193184
368,oneida,43.2001,-75.4663,11.67,94,100,1.54,US,1686192892
369,iskateley,67.6803,53.1512,4.23,53,95,4.23,RU,1686193184
370,kruisfontein,-34.0033,24.7314,10.78,70,12,2.15,ZA,1686193184
371,jaru,-10.4389,-62.4664,22.58,92,51,0.3,BR,1686193184
372,izmail,45.3493,28.8408,9.16,75,71,0.83,UA,1686193185
373,saint-philippe,-21.3585,55.7679,21.77,81,76,4.86,RE,1686193186
374,jiuquan,39.7432,98.5174,29.42,9,42,3.56,CN,1686193186
375,taroudant,30.4703,-8.877,24.18,58,100,1.27,MA,1686193186
376,klaksvik,62.2266,-6.589,7.51,87,96,5.58,FO,1686193186
377,oranjemund,-28.55,16.4333,16.11,82,95,6.44,NA,1686193003
378,kudahuvadhoo,2.6708,72.8944,28.55,77,69,4.51,MV,1686193186
379,santo antonio do ica,-3.1022,-67.9397,22.87,98,70,0.27,BR,1686193186
380,kassala,15.451,36.4,29.57,49,26,2.42,SD,1686193187
381,kailua-kona,19.6406,-155.9956,26.95,86,77,1.34,US,1686193187
382,khandyga,62.6667,135.6,22.49,37,31,3.42,RU,1686193187
383,kidatu,-7.6992,36.9572,22.16,73,100,0.65,TZ,1686193187
384,chinsali,-10.5414,32.0816,11.62,77,0,1.77,ZM,1686193187
385,colonial heights,37.268,-77.4073,19.27,94,100,2.57,US,1686193187
386,kilju,40.9642,129.3278,22.65,65,100,3.99,KP,1686193187
387,dudinka,69.4058,86.1778,10.9,52,47,4.02,RU,1686193187
388,pingliang,35.5392,106.6861,28.13,19,100,3.31,CN,1686193188
389,laghouat,33.8,2.8651,23.93,38,97,3.22,DZ,1686193188
390,sheridan,44.8333,-106.9173,18.51,83,98,0.63,US,1686193188
391,porkhov,57.765,29.5561,8.52,67,2,0.38,RU,1686193188
392,medenine,33.355,10.5055,21.16,67,66,4.07,TN,1686193188
393,nova vicosa,-17.8919,-39.3719,22.27,78,7,3.25,BR,1686193188
394,tomatlan,19.9333,-105.25,23.47,87,48,1.75,MX,1686193188
395,monahans,31.5943,-102.8926,23.84,49,100,0.89,US,1686193189
396,sakakah,29.9697,40.2064,19.76,24,1,3.48,SA,1686193097
397,san antonio de pale,-1.4014,5.6325,24.94,76,100,6.34,GQ,1686193189
398,jackson,42.4165,-122.8345,28.93,32,20,5.66,US,1686192734
399,mirny,62.5353,113.9611,14.02,50,83,3.13,RU,1686193189
400,pascagoula,30.3658,-88.5561,27.03,85,0,0.0,US,1686193061
401,ndende,-2.4008,11.3581,22.35,91,100,0.7,GA,1686193189
402,syevyerodonets'k,48.9483,38.4917,16.56,57,91,0.92,UA,1686193189
403,meulaboh,4.1363,96.1285,28.71,69,76,0.57,ID,1686193190
404,divnogorsk,55.9594,92.3619,23.27,31,12,2.3,RU,1686193190
405,kaifeng,34.7911,114.3483,33.08,20,0,4.82,CN,1686193190
406,altai,46.3722,96.2583,20.18,26,0,2.14,MN,1686193190
407,al kharijah,25.4514,30.5464,31.4,22,94,3.4,EG,1686193191
408,junin,-34.5838,-60.9433,16.61,97,75,2.85,AR,1686193075
409,mont-laurier,46.5501,-75.4993,10.79,84,100,2.99,CA,1686193111
410,trondheim,63.4305,10.3951,8.03,92,96,2.54,NO,1686193147
411,shimoda,34.6667,138.95,23.39,82,100,3.1,JP,1686192989
412,praia,14.9215,-23.5087,24.3,83,40,3.09,CV,1686193191
413,dali,25.7,100.1833,23.44,68,56,1.09,CN,1686193191
414,wakema,16.6,95.1833,28.63,69,99,4.69,MM,1686193192
415,namtsy,62.7161,129.6658,20.19,34,94,5.24,RU,1686193192
416,egilsstadir,65.2653,-14.3948,6.95,81,0,8.23,IS,1686193192
417,north bay,46.3168,-79.4663,14.01,76,100,2.06,CA,1686193285
418,negotin,44.2264,22.5308,14.82,84,100,1.39,RS,1686193192
419,kargil,34.5667,76.1,9.37,44,100,1.16,IN,1686193192
420,keelung,25.1283,121.7419,35.03,75,92,1.96,TW,1686193193
421,ternate,0.8,127.4,28.85,71,86,4.49,ID,1686193193
422,ambah,26.7075,78.2261,36.52,18,0,2.59,IN,1686193193
423,conde,-7.2597,-34.9075,23.7,100,75,3.09,BR,1686193193
424,darwin,-12.4611,130.8418,31.99,51,40,7.2,AU,1686192905
425,shihezi,44.3,86.0333,34.02,21,88,6.78,CN,1686193193
426,cabo san lucas,22.8909,-109.9124,27.01,57,0,3.09,MX,1686193033
427,tarauaca,-8.1614,-70.7656,22.39,98,46,0.64,BR,1686193193
428,palmer,42.1584,-72.3287,13.84,74,100,3.09,US,1686193194
429,huarmey,-10.0681,-78.1522,23.12,86,97,2.94,PE,1686193194
430,high springs,29.8269,-82.5968,24.65,84,94,0.89,US,1686193194
431,pingxiang,27.6167,113.85,26.82,86,99,1.44,CN,1686193194
432,vernon,50.2581,-119.2691,30.74,32,71,1.34,CA,1686193194
433,senanga,-16.1167,23.2667,13.92,55,21,1.63,ZM,1686193194
434,khanty-mansiysk,61.0042,69.0019,13.06,82,40,2.0,RU,1686193194
435,sretensk,52.2453,117.7093,17.55,55,98,4.18,RU,1686193195
436,kuloy,61.0305,42.4925,7.65,56,6,1.38,RU,1686193195
437,tinajo,29.0788,-13.7081,21.49,78,75,1.54,ES,1686193073
438,keokuk,40.3973,-91.3849,21.16,56,40,3.32,US,1686193195
439,bugana,7.9992,7.5836,23.91,93,99,1.06,NG,1686193195
440,chui,-33.6971,-53.4616,15.96,92,100,1.91,UY,1686192931
441,goz beida,13.95,20.55,27.83,52,98,0.85,TD,1686193195
442,grand falls-windsor,48.9332,-55.6649,8.76,98,100,1.92,CA,1686193195
443,tamanrasset,22.785,5.5228,21.95,13,0,1.03,DZ,1686193195
444,prince rupert,54.3161,-130.3201,19.05,63,0,4.12,CA,1686193196
445,suoyarvi,62.0833,32.35,7.47,81,97,2.33,RU,1686193196
446,antsiranana,-12.2787,49.2917,23.01,82,13,6.3,MG,1686193196
447,bocaiuva,-17.1078,-43.815,16.84,77,25,1.66,BR,1686193196
448,turaif,31.6725,38.6637,20.14,52,0,3.09,SA,1686193196
449,rio grande,-32.035,-52.0986,17.84,94,100,3.05,BR,1686193196
450,baotou,40.6522,109.8222,25.45,12,0,7.71,CN,1686193152
451,el abiodh sidi cheikh,32.893,0.5484,24.34,33,81,4.42,DZ,1686193197
452,phan rang-thap cham,11.5667,108.9833,33.76,50,69,2.47,VN,1686193197
453,kittila,67.6647,24.8936,4.23,93,100,4.12,FI,1686193197
454,chengde,40.9725,117.9361,26.96,12,7,7.65,CN,1686193197
455,east london,-33.0153,27.9116,15.73,58,0,3.54,ZA,1686193197
456,ihiala,5.8538,6.8603,22.59,98,100,1.68,NG,1686193197
457,le port,-20.9373,55.2919,23.98,87,9,2.64,RE,1686193197
458,fort bragg,35.139,-79.006,18.44,93,100,1.54,US,1686193198
459,ha'il,27.5219,41.6907,21.01,40,0,1.03,SA,1686192978
460,lewiston orchards,46.3804,-116.9754,33.95,15,0,3.09,US,1686193198
461,cobija,-11.0267,-68.7692,22.72,87,73,0.57,BO,1686193198
462,tidjikja,18.5564,-11.4271,30.78,18,2,5.38,MR,1686193198
463,sisa,-6.6167,-76.6915,23.29,99,67,1.39,PE,1686193158
464,broadbeach waters,-28.0317,153.4122,23.2,64,17,3.6,AU,1686193198
465,santa maria da vitoria,-13.3947,-44.1886,21.39,65,25,1.95,BR,1686193199
466,vila franca do campo,37.7167,-25.4333,18.23,86,26,6.51,PT,1686193199
467,dalbandin,28.8947,64.4101,34.4,13,2,1.09,PK,1686193199
468,mount gambier,-37.8333,140.7667,13.48,82,65,5.89,AU,1686193199
469,isangel,-19.55,169.2667,23.25,60,4,4.69,VU,1686193199
470,buala,-8.145,159.5921,28.72,76,85,1.72,SB,1686193200
471,skarszewy,54.0691,18.4442,15.2,80,2,0.79,PL,1686193200
472,oppdal,62.5943,9.6912,5.93,84,100,2.56,NO,1686193200
473,zelenoborskiy,66.845,32.3622,6.75,84,91,0.8,RU,1686193201
474,jayapura,-2.5333,140.7,33.66,64,43,1.34,ID,1686193202
475,dryden,49.7833,-92.7503,17.16,72,0,1.54,CA,1686193159
476,yerofey pavlovich,53.9667,121.9667,15.48,80,99,2.82,RU,1686193203
477,damara,4.9608,18.7035,21.32,93,100,0.65,CF,1686193203
478,prado,-17.3411,-39.2208,21.25,82,7,2.14,BR,1686193204
479,qoryooley,1.7878,44.53,23.15,97,73,2.54,SO,1686193205
480,castillos,-34.1667,-53.8333,15.06,94,100,2.47,UY,1686193206
481,vila velha,-20.3297,-40.2925,18.86,94,0,1.03,BR,1686193206
482,flin flon,54.7682,-101.865,20.91,51,3,2.3,CA,1686193202
483,haiku-pauwela,20.9219,-156.3051,30.01,48,20,6.69,US,1686193207
484,thinadhoo,0.5333,72.9333,28.14,74,59,1.2,MV,1686193207
485,laascaanood,8.4774,47.3597,23.06,71,99,11.05,SO,1686193208
486,harper,4.375,-7.7169,23.74,95,100,0.54,LR,1686193208
487,victoria,22.2855,114.1577,33.31,82,71,1.79,HK,1686193121
488,bogo,11.0517,124.0055,29.34,71,100,4.7,PH,1686193209
489,wotho,10.1657,166.0102,28.19,78,98,7.16,MH,1686193209
490,berdsk,54.7551,83.0967,28.78,50,32,3.89,RU,1686193209
491,lamar,33.6668,-95.5836,24.95,69,0,2.06,US,1686193210
492,san julian,21.0167,-102.1667,23.44,14,42,4.19,MX,1686193210
493,al qubbah,32.7616,22.2424,16.62,87,42,3.64,LY,1686193210
494,al bawiti,28.3492,28.8659,29.15,29,100,1.98,EG,1686193210
495,butig,7.7244,124.3008,26.34,70,39,2.73,PH,1686193211
496,cerro de pasco,-10.6833,-76.2667,2.17,92,94,0.61,PE,1686193211
497,bathsheba,13.2167,-59.5167,28.34,78,40,5.14,BB,1686193212
498,manavalakurichi,8.1333,77.3,29.03,74,100,7.06,IN,1686193031
499,ust'-ilimsk,58.0006,102.6619,25.1,51,67,1.22,RU,1686193212
500,tahla,34.0485,-4.428,19.76,80,100,2.19,MA,1686193212
501,howrah,22.5892,88.3103,33.0,79,75,1.54,IN,1686193212
502,magong,23.5654,119.5863,27.65,86,45,4.36,TW,1686193212
503,oros,-6.2444,-38.9136,25.56,65,91,1.05,BR,1686193213
504,aqadyr,48.2553,72.8483,27.95,23,48,6.53,KZ,1686193213
505,stephenville,32.2207,-98.2023,23.0,83,0,0.0,US,1686193213
506,mumford,5.2618,-0.759,23.77,94,100,1.36,GH,1686193214
507,langepas,61.2544,75.2124,19.07,81,96,5.58,RU,1686193214
508,teknaf,20.8624,92.3058,28.28,81,100,1.75,BD,1686193214
509,carbonear,47.7332,-53.2148,9.86,97,100,1.2,CA,1686193214
510,rabo de peixe,37.8,-25.5833,17.73,72,75,4.63,PT,1686193214
511,nikolayevsk-on-amure,53.1406,140.73,22.52,42,8,4.45,RU,1686193215
512,liwale,-9.7667,37.9333,18.82,97,15,1.17,TZ,1686193215
513,fada,9.5667,8.3,20.19,98,99,2.47,NG,1686193215
514,katabu,-4.9333,122.5167,29.8,66,41,0.54,ID,1686193215
515,miracema do tocantins,-9.5618,-48.3967,24.17,57,32,0.91,BR,1686193215
516,diego de almagro,-26.3667,-70.05,11.47,74,0,1.05,CL,1686193215
517,sandnessjoen,66.0217,12.6316,5.29,79,100,7.53,NO,1686193216
518,merizo village,13.2658,144.6691,30.55,83,100,5.95,GU,1686193216
519,nizao,18.25,-70.2,25.04,88,100,1.67,DO,1686193216
520,cannonvale,-20.2833,148.7,22.66,42,13,3.04,AU,1686193216
521,ouesso,1.6136,16.0517,21.25,98,72,0.66,CG,1686193216
522,benguela,-12.5763,13.4055,20.81,86,10,2.84,AO,1686193217
523,bikenibeu village,1.3673,173.1241,30.98,74,40,2.57,KI,1686193217
524,mangrol,21.1167,70.1167,29.4,69,11,4.5,IN,1686193217
525,galliano,29.4422,-90.2992,24.0,83,0,0.0,US,1686193217
526,yaren,-0.5472,166.916,28.81,75,93,3.32,NR,1686193218
527,mehran,33.1222,46.1646,30.42,27,99,4.44,IR,1686193218
528,murashi,59.3999,48.9615,7.1,92,100,3.06,RU,1686193218
529,neiafu,-18.65,-173.9833,24.38,83,75,4.63,TO,1686193218
530,tralee,52.2704,-9.7026,12.18,80,100,5.53,IE,1686193219
531,paoua,7.2427,16.4406,21.04,91,100,0.98,CF,1686193219
532,kavaratti,10.5669,72.642,29.15,77,100,7.34,IN,1686193219
533,kudymkar,59.0173,54.656,9.71,70,100,1.08,RU,1686193219
534,noshiro,40.2039,140.0242,23.46,55,71,2.19,JP,1686193219
535,arteche,12.2645,125.4048,31.03,64,71,4.78,PH,1686193219
536,luau,-10.7073,22.2247,18.88,43,93,1.34,AO,1686193220
537,quibala,-10.7337,14.98,15.21,85,8,1.51,AO,1686193220
538,motueka,-41.1333,173.0167,13.39,53,0,0.99,NZ,1686193220
539,palpala,-24.2565,-65.2116,17.57,82,75,1.54,AR,1686193220
540,palasa,18.7667,84.4167,37.65,40,49,1.53,IN,1686193220
541,borba,-4.3878,-59.5939,23.56,97,100,0.94,BR,1686193221
542,laihia,62.9761,22.0114,9.45,100,100,2.06,FI,1686193221
543,alesund,62.4723,6.1549,9.95,82,100,6.69,NO,1686193221
544,black point,-34.6187,137.8972,16.76,51,21,10.39,AU,1686193221
545,maile,-38.9466,-72.3727,10.34,64,100,5.02,CL,1686193221
546,tadine,-21.55,167.8833,22.64,54,0,5.52,NC,1686193221
547,vila do maio,15.1333,-23.2167,24.44,84,6,1.55,CV,1686193222
548,quatre cocos,-20.2078,57.7625,23.06,66,2,8.16,MU,1686193222
549,fortuna,40.5982,-124.1573,13.7,95,100,3.6,US,1686193300
550,ghanzi,-21.5667,21.7833,16.5,34,5,5.27,BW,1686193222
551,crikvenica,45.1772,14.6928,20.11,68,0,1.54,HR,1686193222
552,barmer,25.75,71.3833,30.21,56,0,6.63,IN,1686193168
553,xacmaz,41.4635,48.806,18.02,65,29,1.51,AZ,1686193222
554,grand baie,-20.0182,57.5802,23.26,77,2,1.34,MU,1686193145
555,san luis de la loma,17.2706,-100.8939,27.24,80,79,0.24,MX,1686193223
556,yurimaguas,-5.9,-76.0833,21.73,99,58,0.68,PE,1686193191
557,bor,56.3567,44.0669,10.96,84,6,4.01,RU,1686192822
558,kupang,-10.1667,123.5833,31.32,62,75,5.14,ID,1686193224
559,cranbrook,49.4999,-115.7688,29.91,16,75,1.03,CA,1686193224
560,la tuque,47.4334,-72.7824,11.14,87,100,1.54,CA,1686193224
561,la passe,45.5549,-0.8967,21.13,81,100,3.81,FR,1686193224
562,bloomfield,40.8068,-74.1854,18.14,49,0,1.54,US,1686193202
563,aktau,43.65,51.2,19.32,71,33,4.25,KZ,1686193225
564,arica,-18.475,-70.3042,19.13,72,100,2.57,CL,1686193042
565,maun,-19.9833,23.4167,14.43,44,0,2.98,BW,1686193225
566,nyala,12.05,24.8833,26.44,60,95,2.48,SD,1686193226
567,praia da vitoria,38.7333,-27.0667,17.14,88,20,5.17,PT,1686193226
568,seryshevo,51.0933,128.3786,14.84,87,100,8.14,RU,1686193226
569,comodoro rivadavia,-45.8667,-67.5,8.92,53,0,2.57,AR,1686193303
570,douz,33.4663,9.0203,24.78,52,100,3.92,TN,1686193227
571,crane,31.3974,-102.3501,23.43,44,100,5.81,US,1686193228
572,ketchikan,55.3422,-131.6461,19.99,64,64,1.61,US,1686193114
573,impfondo,1.6381,18.0667,21.67,98,54,1.01,CG,1686193229
574,guerrero negro,27.9769,-114.0611,16.11,77,81,7.27,MX,1686193140
575,padang,-0.9492,100.3543,29.03,71,100,1.19,ID,1686193097
576,benghazi,32.1167,20.0667,20.42,88,37,7.53,LY,1686193230
577,takedamachi,32.9667,131.4,17.65,100,100,3.47,JP,1686193230
578,auraiya,26.4667,79.5167,38.04,16,0,3.4,IN,1686193304
579,nishinoomote,30.7333,131.0,25.31,100,75,6.17,JP,1686193230
580,korla,41.7597,86.1469,29.83,19,100,1.58,CN,1686193230
581,saldanha,-33.0117,17.9442,14.03,90,21,13.25,ZA,1686193231
582,mar del plata,-38.0023,-57.5575,11.72,82,0,2.57,AR,1686193231
583,villacanas,39.6237,-3.3381,15.14,91,88,3.3,ES,1686193232
584,uacu cungo,-11.3634,15.1208,13.07,85,8,1.69,AO,1686193232
585,la sarre,48.8002,-79.1996,11.83,62,100,3.54,CA,1686193233
